[{
  "name": "Entzheim",
  "lat": 48.54699,
  "lon": 7.62794,
  "country": "FR"
}, {
  "name": "Aéroport Paris Roissy Charles de Gaulle CDG",
  "lat": 49.00412433626132,
  "lon": 2.5707364082336426,
  "country": "FR"
}, {
  "name": "Lyon St-Exupéry TGV",
  "lat": 45.721109,
  "lon": 5.074969,
  "country": "FR"
}, {
  "name": "Aéroport Marseille-Provence",
  "lat": 43.44129735202746,
  "lon": 5.237088203430176,
  "country": "FR"
}, {
  "name": "Brussels-Airport-Zaventem",
  "lat": 50.8985400058829,
  "lon": 4.483022689819336,
  "country": "BE"
}, {
  "name": "Genève",
  "lat": 46.232376,
  "lon": 6.112098,
  "country": "CH"
}, {
  "name": "Frankfurt",
  "lat": 50.051209,
  "lon": 8.570971,
  "country": "DE"
}, {
  "name": "Berlin-Schönefeld",
  "lat": 52.391641,
  "lon": 13.513178,
  "country": "DE"
}, {
  "name": "Düsseldorf",
  "lat": 51.292008,
  "lon": 6.786837,
  "country": "DE"
}, {
  "name": "Köln/Bonn",
  "lat": 50.8789,
  "lon": 7.119303,
  "country": "DE"
}, {
  "name": "Southampton",
  "lat": 50.950638,
  "lon": -1.36362,
  "country": "GB"
}, {
  "name": "Gatwick",
  "lat": 51.156425,
  "lon": -0.161022,
  "country": "GB"
}, {
  "name": "Luton",
  "lat": 51.880918,
  "lon": -0.413341,
  "country": "GB"
}, {
  "name": "Manchester",
  "lat": 53.361568,
  "lon": -2.268941,
  "country": "GB"
}, {
  "name": "Stansted",
  "lat": 51.888979,
  "lon": 0.26162,
  "country": "GB"
}, {
  "name": "Heathrow",
  "lat": 51.478443,
  "lon": -0.46134,
  "country": "GB"
}, {
  "name": "Schiphol",
  "lat": 52.308787,
  "lon": 4.761487,
  "country": "NL"
}, {
  "name": "Beauvais-Tillé",
  "lat": 49.459460144878,
  "lon": 2.11222350597382,
  "country": "FR"
}, {
  "name": "Vitrolles Aéroport Marseille-Provence TER",
  "lat": 43.441734,
  "lon": 5.237122,
  "country": "FR"
}, {
  "name": "Aéroport Paris Orly",
  "lat": 48.7294,
  "lon": 2.3681,
  "country": "FR"
}, {
  "name": "Aulnat",
  "lat": 45.7920571,
  "lon": 3.1614332,
  "country": "FR"
}, {
  "name": "Friedrichshafen",
  "lat": 47.672214,
  "lon": 9.523711,
  "country": "DE"
}, {
  "name": "Hamburg",
  "lat": 53.633168,
  "lon": 10.006405,
  "country": "DE"
}, {
  "name": "Hannover",
  "lat": 52.459302,
  "lon": 9.700817,
  "country": "DE"
}, {
  "name": "Köln Airport-Businesspark",
  "lat": 50.910281,
  "lon": 7.04445,
  "country": "DE"
}, {
  "name": "Lübeck",
  "lat": 53.803181,
  "lon": 10.69772,
  "country": "DE"
}, {
  "name": "München Besucherpark",
  "lat": 48.352023,
  "lon": 11.764488,
  "country": "DE"
}, {
  "name": "Stuttgart",
  "lat": 48.690647,
  "lon": 9.192629,
  "country": "DE"
}, {
  "name": "Dresden",
  "lat": 51.124854,
  "lon": 13.766224,
  "country": "DE"
}, {
  "name": "Leipzig/Halle",
  "lat": 51.42334,
  "lon": 12.223423,
  "country": "DE"
}, {
  "name": "Frankfurt Regionalbf",
  "lat": 50.051218,
  "lon": 8.57125,
  "country": "DE"
}, {
  "name": "Berlin Tegel",
  "lat": 52.554085,
  "lon": 13.292403,
  "country": "DE"
}, {
  "name": "Bourges",
  "lat": 47.036299,
  "lon": 2.316807,
  "country": "FR"
}, {
  "name": "Zürich",
  "lat": 47.450279,
  "lon": 8.562333,
  "country": "CH"
}, {
  "name": "Roma Fiumicino",
  "lat": 41.793493,
  "lon": 12.251865,
  "country": "IT"
}, {
  "name": "Palermo-Punta Raisi",
  "lat": 38.188738,
  "lon": 13.109985,
  "country": "IT"
}, {
  "name": "Caselle Torinese",
  "lat": 45.19185940593988,
  "lon": 7.641624212265015,
  "country": "IT"
}, {
  "name": "Kastrup Lufthavn St.",
  "lat": 55.629609,
  "lon": 12.649377,
  "country": "DK"
}, {
  "name": "Wien",
  "lat": 48.120833,
  "lon": 16.563056,
  "country": "AT"
}, {
  "name": "Reggio di Calabria",
  "lat": 38.06747285,
  "lon": 15.6518808342914,
  "country": "IT"
}, {
  "name": "Elmas",
  "lat": 39.2571822,
  "lon": 9.0629485,
  "country": "IT"
}, {
  "name": "Pisa",
  "lat": 43.698541,
  "lon": 10.398469,
  "country": "IT"
}, {
  "name": "Roma Ciampino",
  "lat": 41.80423809568812,
  "lon": 12.59955883026123,
  "country": "IT"
}, {
  "name": "Málaga",
  "lat": 36.675646,
  "lon": -4.487032,
  "country": "ES"
}, {
  "name": "Alacant-Altet",
  "lat": 38.287366,
  "lon": -0.559905,
  "country": "ES"
}, {
  "name": "Jerez-Aeropuerto",
  "lat": 36.751381,
  "lon": -6.066325,
  "country": "ES"
}, {
  "name": "Luton Airport Parkway",
  "lat": 51.871159,
  "lon": -0.393485,
  "country": "GB"
}, {
  "name": "Prestwick International",
  "lat": 55.511513,
  "lon": -4.616166,
  "country": "GB"
}, {
  "name": "Rhoose Cardiff",
  "lat": 51.387454,
  "lon": -3.347599,
  "country": "GB"
}, {
  "name": "Southend",
  "lat": 51.5687,
  "lon": 0.704084,
  "country": "GB"
}, {
  "name": "Teesside",
  "lat": 54.518147,
  "lon": -1.425305,
  "country": "GB"
}, {
  "name": "Glasgow",
  "lat": 55.865803,
  "lon": -4.432114,
  "country": "GB"
}, {
  "name": "Newcastle",
  "lat": 55.03588,
  "lon": -1.71209,
  "country": "GB"
}, {
  "name": "Cardiff International",
  "lat": 51.396667,
  "lon": -3.343333,
  "country": "GB"
}, {
  "name": "Edinburgh",
  "lat": 55.95,
  "lon": -3.3725,
  "country": "GB"
}, {
  "name": "Bergamo-Orio al Serio",
  "lat": 45.6714082,
  "lon": 9.693355,
  "country": "IT"
}, {
  "name": "Lamezia Terme",
  "lat": 38.90539,
  "lon": 16.24227,
  "country": "IT"
}, {
  "name": "Malpensa",
  "lat": 45.627934,
  "lon": 8.710828,
  "country": "IT"
}, {
  "name": "Graz-Feldkirchen",
  "lat": 46.997636,
  "lon": 15.449643,
  "country": "AT"
}, {
  "name": "Basel EuroAirport",
  "lat": 47.600729,
  "lon": 7.531714,
  "country": "FR"
}, {
  "name": "Gothenburg",
  "lat": 57.668799,
  "lon": 12.292314,
  "country": "SE"
}, {
  "name": "Stockholm",
  "lat": 59.6497622,
  "lon": 17.9237807,
  "country": "SE"
}, {
  "name": "Frankfurt Hahn",
  "lat": 49.946788,
  "lon": 7.270911,
  "country": "DE"
}, {
  "name": "Napoli Capodichino",
  "lat": 40.860567,
  "lon": 14.2529902,
  "country": "IT"
}, {
  "name": "Trieste",
  "lat": 45.827281,
  "lon": 13.4704869,
  "country": "IT"
}, {
  "name": "Venezia Marco Polo",
  "lat": 45.5053640124156,
  "lon": 12.3390774644898,
  "country": "IT"
}, {
  "name": "Milano Linate",
  "lat": 45.461278,
  "lon": 9.278806,
  "country": "IT"
}, {
  "name": "Bari",
  "lat": 41.1389008,
  "lon": 16.7605991,
  "country": "IT"
}, {
  "name": "Treviso",
  "lat": 45.65510900701,
  "lon": 12.2045021751079,
  "country": "IT"
}, {
  "name": "Praha",
  "lat": 50.1063864,
  "lon": 14.2687786,
  "country": "CZ"
}, {
  "name": "Krakow",
  "lat": 50.071778,
  "lon": 19.800947,
  "country": "PL"
}, {
  "name": "Eindhoven",
  "lat": 51.4571159,
  "lon": 5.3908055,
  "country": "NL"
}, {
  "name": "Lisboa",
  "lat": 38.7693277,
  "lon": -9.128510400000035,
  "country": "PT"
}, {
  "name": "Bologna",
  "lat": 44.529283,
  "lon": 11.294653,
  "country": "IT"
}, {
  "name": "Porto",
  "lat": 41.23390910000001,
  "lon": -8.67021590000002,
  "country": "PT"
}, {
  "name": "Warszawa Modlin",
  "lat": 52.44587785229154,
  "lon": 20.65070807933807,
  "country": "PL"
}, {
  "name": "Warszawa Chopin",
  "lat": 52.169192,
  "lon": 20.973514,
  "country": "PL"
}, {
  "name": "Madrid Barajas",
  "lat": 40.4650078,
  "lon": -3.57069739999997,
  "country": "ES"
}, {
  "name": "Barcelona El Prat",
  "lat": 41.29581689776558,
  "lon": 2.07490257918835,
  "country": "ES"
}, {
  "name": "Dublin",
  "lat": 53.42801115,
  "lon": -6.240388650000005,
  "country": "IE"
}, {
  "name": "Zagreb",
  "lat": 45.741,
  "lon": 16.081,
  "country": "HR"
}, {
  "name": "Split",
  "lat": 43.5363,
  "lon": 16.2997,
  "country": "HR"
}, {
  "name": "Budapest",
  "lat": 47.4329065837921,
  "lon": 19.2617931962013,
  "country": "HU"
}, {
  "name": "Beograd",
  "lat": 44.8199,
  "lon": 20.2907,
  "country": "RS"
}, {
  "name": "Verona",
  "lat": 45.403,
  "lon": 10.9082,
  "country": "IT"
}, {
  "name": "Turin Cuneo",
  "lat": 44.5476,
  "lon": 7.61837,
  "country": "IT"
}, {
  "name": "Salzburg",
  "lat": 47.7924841,
  "lon": 12.9955638,
  "country": "AT"
}, {
  "name": "Ljubljana",
  "lat": 46.2308784250067,
  "lon": 14.4558995962143,
  "country": "SI"
}, {
  "name": "Pula",
  "lat": 44.8995039886714,
  "lon": 13.9233684539795,
  "country": "HR"
}, {
  "name": "Aéroport de Nice",
  "lat": 43.660998,
  "lon": 7.202424,
  "country": "FR"
}, {
  "name": "München",
  "lat": 48.351868,
  "lon": 11.785364,
  "country": "DE"
}, {
  "name": "Brindisi",
  "lat": 40.6582137,
  "lon": 17.9361081,
  "country": "IT"
}, {
  "name": "Wrocław",
  "lat": 51.1041654,
  "lon": 16.8809331,
  "country": "PL"
}, {
  "name": "Weeze",
  "lat": 51.59388,
  "lon": 6.16098999999997,
  "country": "DE"
}, {
  "name": "Osijek",
  "lat": 45.4662906,
  "lon": 18.8073941,
  "country": "HR"
}, {
  "name": "Valladolid Aeropuerto",
  "lat": 41.7051,
  "lon": -4.8547,
  "country": "ES"
}, {
  "name": "Perugia",
  "lat": 43.09522,
  "lon": 12.5024,
  "country": "IT"
}, {
  "name": "Malta",
  "lat": 35.8558101,
  "lon": 14.4868944,
  "country": "MT"
}, {
  "name": "Gioia Del Colle",
  "lat": 40.779981,
  "lon": 16.935081,
  "country": "IT"
}, {
  "name": "Valencia",
  "lat": 39.491642,
  "lon": -0.47329,
  "country": "ES"
}, {
  "name": "Vilnius",
  "lat": 54.638037,
  "lon": 25.286558,
  "country": "LT"
}, {
  "name": "Bordeaux",
  "lat": 44.830227,
  "lon": -0.700843,
  "country": "FR"
}, {
  "name": "Cork",
  "lat": 51.8489731525078,
  "lon": -8.48902381340349,
  "country": "IE"
}, {
  "name": "Carcassonne",
  "lat": 43.215751,
  "lon": 2.306171,
  "country": "FR"
}, {
  "name": "Foggia",
  "lat": 41.43391,
  "lon": 15.5358782,
  "country": "IT"
}, {
  "name": "Szczecin",
  "lat": 53.610785,
  "lon": 14.911664,
  "country": "PL"
}, {
  "name": "Montpellier",
  "lat": 43.5770494713834,
  "lon": 3.9559898476324,
  "country": "FR"
}, {
  "name": "Menorca",
  "lat": 39.8654253,
  "lon": 4.2264212,
  "country": "ES"
}, {
  "name": "Bucharest Henri Coandă",
  "lat": 44.570516,
  "lon": 26.084533,
  "country": "RO"
}, {
  "name": "Tirana",
  "lat": 41.4182181868454,
  "lon": 19.7138714790344,
  "country": "AL"
}, {
  "name": "Copenhagen",
  "lat": 55.631365,
  "lon": 12.656061,
  "country": "DK"
}, {
  "name": "Toulouse",
  "lat": 43.6301436137076,
  "lon": 1.37545798711631,
  "country": "FR"
}, {
  "name": "Gdańsk",
  "lat": 54.3808366,
  "lon": 18.4684331999999,
  "country": "PL"
}, {
  "name": "Biarritz",
  "lat": 43.4725243301388,
  "lon": -1.53179632499814,
  "country": "FR"
}, {
  "name": "Rijeka",
  "lat": 45.22374295,
  "lon": 14.5651466,
  "country": "HR"
}, {
  "name": "Paris Vatry",
  "lat": 48.780885,
  "lon": 4.1899366,
  "country": "FR"
}, {
  "name": "Chambéry",
  "lat": 45.638502,
  "lon": 5.884517,
  "country": "FR"
}, {
  "name": "Genoa",
  "lat": 44.4153,
  "lon": 8.85069,
  "country": "IT"
}, {
  "name": "Secovlje Portorož",
  "lat": 45.4744043,
  "lon": 13.6167124,
  "country": "SI"
}, {
  "name": "Parma",
  "lat": 44.8213,
  "lon": 10.2979,
  "country": "IT"
}, {
  "name": "Zadar",
  "lat": 44.0964,
  "lon": 15.3531,
  "country": "HR"
}, {
  "name": "Maribor",
  "lat": 46.4781954,
  "lon": 15.6820207000001,
  "country": "SI"
}, {
  "name": "Florence",
  "lat": 43.8018,
  "lon": 11.2007,
  "country": "IT"
}, {
  "name": "Klagenfurt",
  "lat": 46.6508772,
  "lon": 14.3235913,
  "country": "AT"
}, {
  "name": "Kaunas",
  "lat": 54.9670001,
  "lon": 24.0713865,
  "country": "LT"
}, {
  "name": "Katowice",
  "lat": 50.4694999,
  "lon": 19.074015,
  "country": "PL"
}, {
  "name": "Bratislava",
  "lat": 48.1695907,
  "lon": 17.1996538999999,
  "country": "SK"
}, {
  "name": "Alghero Airport Fertilia",
  "lat": 40.62877,
  "lon": 8.294678,
  "country": "IT"
}, {
  "name": "Girona Costa Brava",
  "lat": 41.896716,
  "lon": 2.765662,
  "country": "ES"
}, {
  "name": "Faro",
  "lat": 37.0175956,
  "lon": -7.96972,
  "country": "PT"
}, {
  "name": "Napoli Capodichino",
  "lat": 40.8847493,
  "lon": 14.289243,
  "country": "IT"
}, {
  "name": "Karlsruhe / Baden-Baden",
  "lat": 48.7781001,
  "lon": 8.0875217,
  "country": "DE"
}, {
  "name": "Memmingen",
  "lat": 47.9875422,
  "lon": 10.234349,
  "country": "DE"
}, {
  "name": "Oslo",
  "lat": 60.1975501,
  "lon": 11.1004152,
  "country": "NO"
}, {
  "name": "Innsbruck",
  "lat": 47.2575301,
  "lon": 11.3509844,
  "country": "AT"
}, {
  "name": "Linz",
  "lat": 48.2399371,
  "lon": 14.1879109,
  "country": "AT"
}, {
  "name": "Sofia",
  "lat": 42.6885203,
  "lon": 23.39719025,
  "country": "BG"
}, {
  "name": "Plovdiv",
  "lat": 42.071428,
  "lon": 24.8622985,
  "country": "BG"
}, {
  "name": "Burgas",
  "lat": 42.5650814,
  "lon": 27.4991571,
  "country": "BG"
}, {
  "name": "Varna",
  "lat": 43.2375259,
  "lon": 27.8110737,
  "country": "BG"
}, {
  "name": "Rzeszów",
  "lat": 50.1118375,
  "lon": 22.031845,
  "country": "PL"
}, {
  "name": "Riga",
  "lat": 56.920449,
  "lon": 23.976914,
  "country": "LV"
}, {
  "name": "Dubrovnik",
  "lat": 42.56008,
  "lon": 18.261,
  "country": "HR"
}, {
  "name": "Nantes",
  "lat": 47.154746,
  "lon": -1.597711,
  "country": "FR"
}, {
  "name": "Poznan",
  "lat": 52.413397,
  "lon": 16.826535,
  "country": "PL"
}, {
  "name": "Perpignan",
  "lat": 42.7409222642895,
  "lon": 2.86699460344994,
  "country": "FR"
}, {
  "name": "Baia Mare",
  "lat": 47.6611057,
  "lon": 23.4680187,
  "country": "RO"
}, {
  "name": "Maastricht Aachen",
  "lat": 50.9124374,
  "lon": 5.76552179999999,
  "country": "NL"
}, {
  "name": "Castellón",
  "lat": 40.1533333,
  "lon": 0.048223,
  "country": "ES"
}, {
  "name": "Ostrow Wielkopolski",
  "lat": 51.6517677,
  "lon": 17.8026600000001,
  "country": "PL"
}, {
  "name": "Lausanne",
  "lat": 46.541491,
  "lon": 6.61777099999995,
  "country": "CH"
}, {
  "name": "Cluj",
  "lat": 46.781396,
  "lon": 23.68615,
  "country": "RO"
}, {
  "name": "Shannon",
  "lat": 52.6996573,
  "lon": -8.91469110000003,
  "country": "IE"
}, {
  "name": "Sibiu",
  "lat": 45.7901671,
  "lon": 24.0927893,
  "country": "RO"
}, {
  "name": "Lublin",
  "lat": 51.2229167,
  "lon": 22.7035405,
  "country": "PL"
}, {
  "name": "Reus",
  "lat": 41.1467077,
  "lon": 1.15356139999994,
  "country": "ES"
}, {
  "name": "Oradea",
  "lat": 47.0256291,
  "lon": 21.8965453000001,
  "country": "RO"
}, {
  "name": "Nicosia Ercan",
  "lat": 35.161031,
  "lon": 33.5031711,
  "country": "CY"
}, {
  "name": "Thessaloniki",
  "lat": 40.5247793,
  "lon": 22.97643440000002,
  "country": "GR"
}, {
  "name": "Kos",
  "lat": 36.8002881,
  "lon": 27.09680700000001,
  "country": "GR"
}, {
  "name": "Nicosia Larnaca",
  "lat": 34.8723402,
  "lon": 33.62035160000005,
  "country": "CY"
}, {
  "name": "Malmö",
  "lat": 55.540613,
  "lon": 13.364208,
  "country": "SE"
}, {
  "name": "Stockholm Bromma",
  "lat": 59.35591,
  "lon": 17.94617,
  "country": "SE"
}, {
  "name": "Stockholm Skavsta",
  "lat": 58.78447,
  "lon": 16.92135,
  "country": "SE"
}, {
  "name": "Stockholm Vasteras",
  "lat": 59.6017,
  "lon": 16.62798,
  "country": "SE"
}, {
  "name": "Kiev Boryspil",
  "lat": 50.341475,
  "lon": 30.889526,
  "country": "UA"
}, {
  "name": "Billund",
  "lat": 55.728449,
  "lon": 9.112366,
  "country": "DK"
}, {
  "name": "Munster / Osnabruck",
  "lat": 52.133725,
  "lon": 7.685923,
  "country": "DE"
}, {
  "name": "Tallinn",
  "lat": 59.41620014503008,
  "lon": 24.79882317066927,
  "country": "EE"
}, {
  "name": "Timisoara",
  "lat": 45.810147,
  "lon": 21.320177,
  "country": "RO"
}, {
  "name": "Skopje",
  "lat": 41.9616,
  "lon": 21.6214,
  "country": "MK"
}, {
  "name": "Ibiza",
  "lat": 38.87707778,
  "lon": 1.368941132,
  "country": "ES"
}, {
  "name": "Santiago de Compostela",
  "lat": 42.89795006,
  "lon": -8.420665041,
  "country": "ES"
}, {
  "name": "Pristina",
  "lat": 42.574261,
  "lon": 21.028887,
  "country": "RS"
}, {
  "name": "Helsinki",
  "lat": 60.317887,
  "lon": 24.96695,
  "country": "FI"
}]
